City_ID,City,Lat,Lng,Max Temp,Humidity,Cloudiness,Wind Speed,Country,Date
0,hilo,19.7297,-155.09,79.11,76,0,5.75,US,1671301957
1,puerto ayacucho,5.6639,-67.6236,90.21,44,48,4.21,VE,1671301958
2,jamestown,42.097,-79.2353,33.39,59,100,10.36,US,1671301842
3,nikolskoye,59.7035,30.7861,-4.43,100,65,0.22,RU,1671301961
4,arraial do cabo,-22.9661,-42.0278,76.96,83,75,18.41,BR,1671301962
5,bluff,-46.6,168.3333,52.81,82,100,14.47,NZ,1671301964
6,port alfred,-33.5906,26.891,67.17,91,100,8.03,ZA,1671301965
7,dudinka,69.4058,86.1778,1.6,89,100,11.86,RU,1671301967
8,yatou,37.15,122.3833,21.72,73,75,18.39,CN,1671301968
9,pevek,69.7008,170.3133,-2.52,97,11,0.58,RU,1671301969
10,mitu,1.1983,-70.1733,90.0,44,87,4.81,CO,1671301971
11,bethel,41.3712,-73.414,44.46,61,0,17.27,US,1671301780
12,sangar,63.9242,127.4739,-53.5,100,57,2.73,RU,1671301973
13,padang,-0.9492,100.3543,77.05,88,100,3.58,ID,1671301714
14,carnarvon,-24.8667,113.6333,73.87,71,0,20.36,AU,1671301976
15,saint-philippe,-21.3585,55.7679,78.39,82,100,14.43,RE,1671301977
16,mao,39.8885,4.2658,54.16,94,20,1.14,ES,1671301979
17,najran,17.4924,44.1277,63.25,41,0,3.62,SA,1671301981
18,ushuaia,-54.8,-68.3,51.46,66,40,8.05,AR,1671301904
19,esperance,-33.8667,121.9,58.44,78,7,10.47,AU,1671301984
20,moron,-34.6534,-58.6198,80.94,36,0,8.28,AR,1671301401
21,hobart,-42.8794,147.3294,49.05,92,100,8.05,AU,1671301930
22,atuona,-9.8,-139.0333,78.22,77,100,19.91,PF,1671301988
23,ribeira grande,38.5167,-28.7,66.6,82,75,34.0,PT,1671301989
24,nagato,34.3833,131.2,39.83,55,100,27.29,JP,1671301991
25,chifeng,42.2683,118.9636,-0.53,45,0,6.78,CN,1671301992
26,mizdah,31.4451,12.9801,63.72,31,0,6.53,LY,1671301994
27,chuy,-33.6971,-53.4616,69.26,52,86,13.76,UY,1671301996
28,ahipara,-35.1667,173.1667,64.36,95,100,4.25,NZ,1671301965
29,saint george,37.1041,-113.5841,38.62,48,0,3.44,US,1671301261
30,yellowknife,62.456,-114.3525,-16.08,76,75,6.91,CA,1671301905
31,vaini,-21.2,-175.2,71.76,100,20,1.14,TO,1671302001
32,albany,42.6001,-73.9662,39.34,73,12,8.9,US,1671302002
33,fershampenuaz,53.5202,59.8117,18.63,96,100,4.54,RU,1671301945
34,busselton,-33.65,115.3333,61.56,75,55,13.67,AU,1671302005
35,rikitea,-23.1203,-134.9692,75.22,81,100,7.87,PF,1671302007
36,colon,9.3592,-79.9014,86.45,70,45,5.99,PA,1671301945
37,adrar,20.5022,-10.0711,74.64,24,98,10.8,MR,1671302010
38,taoudenni,22.6783,-3.9836,77.36,21,8,8.88,ML,1671302011
39,punta arenas,-53.15,-70.9167,55.51,44,0,23.02,CL,1671301819
40,antalaha,-14.9003,50.2788,73.47,83,14,4.34,MG,1671302014
41,bredasdorp,-34.5322,20.0403,67.28,81,100,11.39,ZA,1671302015
42,touros,-5.1989,-35.4608,81.39,68,48,13.09,BR,1671302017
43,dikson,73.5069,80.5464,8.13,91,100,19.37,RU,1671302018
44,nouadhibou,20.931,-17.0347,73.38,64,6,11.5,MR,1671302020
45,zyryanka,65.75,150.85,-23.94,96,100,16.06,RU,1671302021
46,carinhanha,-14.3047,-43.765,71.94,91,99,6.08,BR,1671302022
47,butaritari,3.0707,172.7902,81.63,77,29,9.51,KI,1671302024
48,baherden,38.4362,57.4316,47.52,56,91,2.15,TM,1671302025
49,torbay,47.6666,-52.7314,35.58,95,100,17.27,CA,1671302027
50,narsaq,60.9167,-46.05,12.42,68,10,5.95,GL,1671302028
51,urumqi,43.801,87.6005,0.55,85,0,6.71,CN,1671302030
52,harper,4.375,-7.7169,79.36,79,5,5.66,LR,1671302031
53,tuatapere,-46.1333,167.6833,53.06,95,100,5.08,NZ,1671302032
54,ambilobe,-13.2,49.05,74.44,88,95,4.81,MG,1671302034
55,quatre cocos,-20.2078,57.7625,78.1,76,100,14.09,MU,1671302035
56,castro,-24.7911,-50.0119,67.6,79,74,2.13,BR,1671302036
57,cape town,-33.9258,18.4232,70.21,77,0,17.27,ZA,1671302038
58,kropotkin,45.4375,40.5756,47.39,70,13,7.05,RU,1671302039
59,east london,-33.0153,27.9116,70.74,88,75,5.75,ZA,1671302040
60,avarua,-21.2078,-159.775,78.85,89,75,13.8,CK,1671302042
61,luderitz,-26.6481,15.1594,68.85,83,0,20.67,NA,1671302044
62,narrabri,-30.3167,149.7833,55.53,74,76,3.0,AU,1671302045
63,kavieng,-2.5744,150.7967,81.61,72,100,5.3,PG,1671302047
64,victoria,22.2855,114.1577,54.32,36,100,3.0,HK,1671301984
65,hasaki,35.7333,140.8333,42.22,82,100,10.04,JP,1671302051
66,byron bay,-28.65,153.6167,61.95,80,62,13.53,AU,1671302052
67,gazanjyk,39.2446,55.5154,45.75,57,95,8.41,TM,1671302054
68,lompoc,34.6391,-120.4579,58.84,60,0,8.05,US,1671302056
69,port elizabeth,-33.918,25.5701,70.11,89,75,4.61,ZA,1671302040
70,manhattan beach,33.8847,-118.4109,64.02,32,40,9.22,US,1671301844
71,puerto ayora,-0.7393,-90.3518,78.76,93,96,4.0,EC,1671301880
72,brae,60.3964,-1.353,40.73,78,90,22.21,GB,1671302062
73,hermanus,-34.4187,19.2345,68.81,80,60,14.27,ZA,1671302063
74,tuktoyaktuk,69.4541,-133.0374,-16.6,76,20,11.5,CA,1671302065
75,kapaa,22.0752,-159.319,70.12,91,0,8.05,US,1671301784
76,comodoro rivadavia,-45.8667,-67.5,78.66,24,0,17.27,AR,1671302067
77,souillac,-20.5167,57.5167,77.38,73,40,11.5,MU,1671302069
78,cabedelo,-6.9811,-34.8339,86.67,60,6,11.25,BR,1671302070
79,moerai,-22.4333,-151.3333,75.78,80,100,13.87,PF,1671302071
80,alice springs,-23.7,133.8833,67.55,37,4,4.61,AU,1671302073
81,eidfjord,60.4675,7.0719,25.81,93,100,6.91,NO,1671302074
82,te anau,-45.4167,167.7167,51.94,96,100,3.29,NZ,1671302075
83,thompson,55.7435,-97.8558,-9.24,70,75,5.75,CA,1671302070
84,salisbury,51.0693,-1.7957,36.01,83,100,10.36,GB,1671302078
85,yaan,7.3833,8.5667,79.61,20,100,3.6,NG,1671302079
86,kodiak,57.79,-152.4072,29.71,93,75,4.61,US,1671302081
87,new norfolk,-42.7826,147.0587,48.7,72,41,1.9,AU,1671302082
88,hamilton,39.1834,-84.5333,35.04,67,100,12.66,US,1671301809
89,tura,25.5198,90.2201,60.57,89,0,2.8,IN,1671302084
90,esso,55.9333,158.7,22.5,96,100,1.52,RU,1671302086
91,bollnas,61.3482,16.3946,30.97,96,100,4.59,SE,1671302087
92,arlit,18.7369,7.3853,76.77,12,0,7.7,NE,1671302089
93,ugoofaaru,5.6667,73.0,81.01,74,100,10.13,MV,1671302090
94,kasongo,-4.45,26.6667,69.12,95,11,2.01,CD,1671302091
95,barrow,71.2906,-156.7887,-5.78,77,75,14.97,US,1671302093
96,patacamaya,-17.2333,-67.9167,61.36,42,96,13.65,BO,1671302094
97,kroya,-7.6331,109.2461,77.85,84,16,3.31,ID,1671302095
98,lodwar,3.1191,35.5973,86.47,36,12,12.39,KE,1671302097
99,bay city,43.5945,-83.8889,30.65,79,100,14.97,US,1671302098
100,rio gallegos,-51.6226,-69.2181,66.25,19,75,19.57,AR,1671301885
101,sitka,57.0531,-135.33,26.49,36,0,3.44,US,1671302101
102,deputatskiy,69.3,139.9,-37.93,99,17,2.98,RU,1671302102
103,nanortalik,60.1432,-45.2371,24.06,71,3,8.48,GL,1671302043
104,ustye,59.6304,39.736,13.21,96,100,4.34,RU,1671302105
105,madras,13.0878,80.2785,80.58,83,40,2.3,IN,1671302089
106,constitucion,-35.3333,-72.4167,66.42,63,7,13.11,CL,1671302107
107,santa luzia,-19.7697,-43.8514,84.34,61,20,8.05,BR,1671302109
108,alofi,-19.0595,-169.9187,76.89,94,86,1.14,NU,1671302110
109,mackay,-21.15,149.2,77.68,65,100,16.6,AU,1671301860
110,tonantins,-2.8731,-67.8022,90.25,51,58,2.21,BR,1671302113
111,dawei,14.0833,98.2,75.25,63,66,12.75,MM,1671302114
112,batticaloa,7.7102,81.6924,76.91,84,100,11.99,LK,1671302116
113,fortuna,40.5982,-124.1573,45.99,95,0,5.75,US,1671302117
114,baruun-urt,46.6806,113.2792,-6.88,92,75,5.35,MN,1671302119
115,ballina,-28.8667,153.5667,62.02,84,99,12.93,AU,1671302120
116,zlobin,45.2924,14.6541,36.79,67,20,8.05,HR,1671302122
117,mount isa,-20.7333,139.5,85.77,14,100,10.36,AU,1671302123
118,balod,20.73,81.2047,59.83,47,29,3.27,IN,1671302125
119,talnakh,69.4865,88.3972,-3.86,90,100,8.61,RU,1671302126
120,makokou,0.5738,12.8642,71.33,93,57,1.63,GA,1671302128
121,upernavik,72.7868,-56.1549,13.51,54,100,5.41,GL,1671302129
122,shirakawa,37.1223,140.2376,36.95,89,36,7.4,JP,1671302131
123,samarai,-10.6167,150.6667,82.26,76,100,4.34,PG,1671302132
124,boardman,41.0242,-80.6628,32.68,71,100,4.0,US,1671302134
125,pochutla,15.7432,-96.4661,87.82,45,0,6.8,MX,1671302135
126,lazo,43.3817,133.9014,-3.96,93,59,5.32,RU,1671302136
127,codrington,-38.2667,141.9667,49.41,93,1,9.33,AU,1671302138
128,vila franca do campo,37.7167,-25.4333,68.2,87,99,26.28,PT,1671302139
129,kosa,59.9445,54.9977,-1.1,99,100,2.51,RU,1671302141
130,ancud,-41.8697,-73.8203,60.82,69,0,11.5,CL,1671302142
131,cidreira,-30.1811,-50.2056,71.08,64,87,14.05,BR,1671302144
132,stykkisholmur,65.0757,-22.7297,23.5,82,100,20.51,IS,1671302145
133,georgetown,5.4112,100.3354,80.53,91,40,3.44,MY,1671301848
134,puro,12.4841,123.3827,78.64,85,32,11.1,PH,1671302147
135,balabac,7.9868,117.0645,79.99,82,99,6.69,PH,1671302149
136,westport,41.1415,-73.3579,46.22,56,0,13.8,US,1671301861
137,praia da vitoria,38.7333,-27.0667,65.75,88,40,35.84,PT,1671302151
138,qaanaaq,77.484,-69.3632,0.3,68,96,11.32,GL,1671302152
139,martin,27.0837,-80.4164,77.97,83,99,8.46,US,1671302154
140,lebu,-37.6167,-73.65,63.77,73,1,15.14,CL,1671302155
141,cansancao,-10.6672,-39.4992,86.52,41,100,3.33,BR,1671302157
142,lagoa,39.05,-27.9833,62.29,82,96,37.13,PT,1671302158
143,mataura,-46.1927,168.8643,52.48,99,100,3.04,NZ,1671302160
144,port blair,11.6667,92.75,82.44,74,75,5.75,IN,1671302161
145,vardo,70.3705,31.1107,12.18,85,45,29.93,NO,1671302162
146,beeskow,52.1667,14.25,26.37,92,75,3.33,DE,1671302164
147,bengkulu,-3.8004,102.2655,74.59,91,100,4.9,ID,1671301869
148,jumla,29.2747,82.1838,38.98,31,0,4.65,NP,1671302167
149,malanje,-9.5402,16.341,65.01,83,100,3.83,AO,1671302168
150,verkhnevilyuysk,63.4453,120.3167,-50.08,100,67,1.41,RU,1671302170
151,san cristobal,7.7669,-72.225,77.18,40,94,6.02,VE,1671302171
152,norman wells,65.282,-126.8329,-5.76,77,40,12.66,CA,1671302173
153,pacific grove,36.6177,-121.9166,59.65,64,0,1.01,US,1671302174
154,san pedro pinula,14.6667,-89.85,79.16,44,1,4.65,GT,1671302175
155,bereda,43.2686,-7.5406,49.57,100,75,3.24,ES,1671302178
156,pisco,-13.7,-76.2167,75.25,69,0,11.5,PE,1671302179
157,venice,27.0998,-82.4543,75.22,56,100,5.75,US,1671302181
158,pascagoula,30.3658,-88.5561,55.42,57,100,13.8,US,1671302109
159,florianopolis,-27.6146,-48.5012,71.62,59,75,8.05,BR,1671302183
160,leningradskiy,69.3833,178.4167,1.35,85,35,2.82,RU,1671302184
161,mareeba,-17.0,145.4333,72.45,94,65,3.2,AU,1671302186
162,mogadouro,41.3403,-6.7119,44.26,84,99,3.24,PT,1671302187
163,panino,51.6467,40.1346,37.54,100,100,11.83,RU,1671302188
164,manaus,-3.1019,-60.025,81.1,83,75,8.05,BR,1671301934
165,verkhoyansk,67.5447,133.385,-53.21,98,51,0.49,RU,1671302191
166,richards bay,-28.783,32.0377,74.89,88,100,11.88,ZA,1671302192
167,beloha,-25.1667,45.05,71.92,90,99,7.47,MG,1671302193
168,mount gambier,-37.8333,140.7667,50.83,87,0,8.9,AU,1671302195
169,carthage,36.8611,10.3316,56.73,82,40,0.0,TN,1671302196
170,hithadhoo,-0.6,73.0833,81.57,74,1,12.28,MV,1671302198
171,katsuura,35.1333,140.3,45.95,88,100,10.56,JP,1671302199
172,pangnirtung,66.1451,-65.7125,19.4,68,75,4.61,CA,1671302200
173,saldanha,-33.0117,17.9442,69.85,87,7,21.07,ZA,1671302202
174,faanui,-16.4833,-151.75,80.01,77,100,11.9,PF,1671302203
175,santa lucia,27.9117,-15.5407,61.92,68,20,5.75,ES,1671301975
176,talara,-4.5772,-81.2719,81.36,61,0,17.27,PE,1671302206
177,nurota,40.5614,65.6886,38.43,54,100,7.16,UZ,1671302207
178,jodiya,22.6925,70.306,76.24,35,14,7.38,IN,1671302208
179,sao borja,-28.6606,-56.0044,86.95,17,100,8.21,BR,1671302076
180,ubinskoye,55.3068,79.6802,-7.11,86,13,6.93,RU,1671302211
181,pundaguitan,6.3711,126.1689,81.21,74,100,8.23,PH,1671302212
182,sao filipe,14.8961,-24.4956,76.87,71,100,8.03,CV,1671302214
183,kaitangata,-46.2817,169.8464,50.31,97,100,6.51,NZ,1671302215
184,sasovo,54.3537,41.9199,32.83,99,100,6.17,RU,1671302216
185,bonfim,3.0833,-59.95,86.27,60,90,9.55,BR,1671302217
186,yulara,-25.2406,130.9889,68.49,56,86,11.05,AU,1671302219
187,tahe,52.3333,124.7333,-17.64,90,100,4.25,CN,1671302220
188,skelleftea,64.7507,20.9528,7.16,92,19,8.05,SE,1671302222
189,ixtapa,20.7,-105.2,76.23,57,100,0.0,MX,1671302224
190,saskylakh,71.9167,114.0833,-36.53,100,45,5.12,RU,1671302225
191,yar-sale,66.8333,70.8333,12.34,94,100,12.55,RU,1671301996
192,krasnoselkup,65.7,82.4667,4.37,95,100,14.16,RU,1671302115
193,namibe,-15.1961,12.1522,71.51,76,100,12.48,AO,1671302229
194,punta alta,-38.8759,-62.0736,87.55,29,4,6.53,AR,1671302230
195,dubti,11.7361,41.0853,79.9,43,29,16.37,ET,1671302231
196,aklavik,68.2191,-135.0107,-4.0,71,75,11.5,CA,1671302233
197,san patricio,28.017,-97.5169,55.49,36,100,10.76,US,1671302234
198,mar del plata,-38.0023,-57.5575,72.82,65,0,23.02,AR,1671302236
199,isangel,-19.55,169.2667,64.51,82,20,0.0,VU,1671302238
200,altamont,42.2068,-121.7372,23.77,89,20,0.0,US,1671302239
201,rupert,42.6191,-113.6772,13.17,78,0,0.0,US,1671302240
202,leh,34.1667,77.5833,16.7,54,1,1.5,IN,1671302242
203,naze,28.3667,129.4833,52.72,75,100,27.92,JP,1671302243
204,concordia,-31.393,-58.0209,82.47,40,75,10.0,AR,1671302245
205,srednekolymsk,67.45,153.6833,-20.33,97,100,8.52,RU,1671302246
206,sao joao da barra,-21.6403,-41.0511,82.49,77,97,14.97,BR,1671302248
207,nemuro,43.3236,145.575,37.4,98,100,24.02,JP,1671302249
208,nome,64.5011,-165.4064,23.07,39,20,10.36,US,1671301951
209,masallatah,32.6167,14.0,62.29,82,0,6.42,LY,1671302252
210,methoni,36.8197,21.7049,64.22,90,13,8.08,GR,1671302253
211,guerrero negro,27.9769,-114.0611,66.13,31,13,1.83,MX,1671302255
212,sorland,67.667,12.6934,35.46,57,100,12.77,NO,1671302256
213,atambua,-9.1061,124.8925,72.1,86,100,1.66,ID,1671302258
214,homer,59.6425,-151.5483,23.81,77,0,14.0,US,1671302117
215,gua musang,4.8823,101.9644,72.77,100,100,1.01,MY,1671302260
216,tasiilaq,65.6145,-37.6368,15.96,56,0,6.24,GL,1671302262
217,severo-kurilsk,50.6789,156.125,25.56,66,85,17.34,RU,1671302263
218,wairoa,-39.0333,177.3667,64.54,99,100,1.99,NZ,1671302264
219,kyren,51.6828,102.1408,3.13,82,61,1.3,RU,1671302266
220,clyde river,70.4692,-68.5914,12.43,79,100,18.41,CA,1671302267
221,wanaka,-44.7,169.15,58.1,83,100,1.99,NZ,1671302268
222,mana,5.6592,-53.7767,78.24,84,95,9.15,GF,1671302270
223,jejuri,18.2833,74.1667,71.92,58,6,5.41,IN,1671302271
224,aleksandrovka,46.8383,32.7612,52.83,95,100,14.25,UA,1671302272
225,muslyumovo,55.3033,53.1947,26.13,97,100,9.1,RU,1671302274
226,sawtell,-30.3833,153.1,62.19,67,75,9.22,AU,1671302276
227,huntingdon,52.3305,-0.1865,37.02,90,100,5.99,GB,1671302277
228,porto novo,6.4965,2.6036,82.22,78,100,7.76,BJ,1671302279
229,mumbwa,-14.9783,27.0619,65.93,85,100,4.25,ZM,1671302280
230,pemba,-12.974,40.5178,79.5,83,75,14.97,MZ,1671302281
231,dingle,10.9995,122.6711,74.17,93,94,7.96,PH,1671302283
232,rio grande,-32.035,-52.0986,78.91,65,43,19.19,BR,1671302284
233,clarence town,-32.5833,151.7833,61.99,88,100,3.06,AU,1671302286
234,half moon bay,37.4636,-122.4286,55.27,73,0,6.91,US,1671302288
235,katsina,12.9894,7.6006,75.18,16,100,9.15,NG,1671302289
236,surt,31.2089,16.5887,69.1,75,0,7.78,LY,1671302291
237,prenzlau,53.3167,13.8667,21.9,97,34,5.3,DE,1671302292
238,viedma,-40.8135,-62.9967,93.34,14,100,19.42,AR,1671302293
239,zaragoza,41.6561,-0.8773,51.03,80,20,3.44,ES,1671302295
240,opuwo,-18.0607,13.84,76.01,43,99,8.39,NA,1671302296
241,cumberland,35.0502,-78.8664,53.49,54,0,8.05,US,1671302298
242,birao,10.2849,22.7882,74.14,26,85,6.38,CF,1671302299
243,poim,53.0264,43.1872,33.73,100,100,7.74,RU,1671302300
244,prado,-17.3411,-39.2208,76.08,92,100,10.02,BR,1671302302
245,thunder bay,48.4001,-89.3168,30.18,93,100,6.91,CA,1671302303
246,haines junction,60.7522,-137.5108,-16.65,69,62,3.44,CA,1671302305
247,patu,-6.11,-37.6367,94.68,25,91,7.7,BR,1671302306
248,portland,45.5234,-122.6762,40.28,82,20,3.44,US,1671302041
249,geraldton,-28.7667,114.6,63.01,82,5,5.75,AU,1671302308
250,tiksi,71.6872,128.8694,-23.49,98,98,2.8,RU,1671302310
251,grand gaube,-20.0064,57.6608,78.39,70,54,5.99,MU,1671302311
252,khatanga,71.9667,102.5,-8.54,100,94,4.25,RU,1671302312
253,fukue,32.6881,128.8419,41.11,74,100,34.92,JP,1671302314
254,fort nelson,58.8053,-122.7002,-0.06,82,100,5.75,CA,1671302315
255,ndjole,-0.1783,10.7649,75.76,95,100,1.7,GA,1671302317
256,bambous virieux,-20.3428,57.7575,78.22,73,40,11.5,MU,1671302205
257,dukat,62.55,155.55,-6.02,97,100,7.18,RU,1671302319
258,yumen,40.2833,97.2,10.33,59,0,5.55,CN,1671302321
259,rongcheng,30.634,117.8517,29.34,38,0,3.53,CN,1671302322
260,leo,11.1,-2.1,79.56,16,0,7.45,BF,1671302323
261,mahebourg,-20.4081,57.7,78.26,73,40,11.5,MU,1671302325
262,ararangua,-28.9347,-49.4858,71.38,63,95,3.94,BR,1671302326
263,chiheru de jos,46.6833,24.8833,39.34,94,100,7.0,RO,1671302328
264,buchmany,51.0689,28.0421,25.81,94,100,11.74,UA,1671302329
265,ponta do sol,32.6667,-17.1,67.01,81,30,6.4,PT,1671302063
266,petropavlovskoye,52.0712,84.107,3.94,87,93,4.88,RU,1671302333
267,svetlyy,54.675,20.1347,21.25,98,80,1.83,RU,1671302334
268,te kauwhata,-37.4,175.15,65.14,98,100,2.86,NZ,1671302335
269,alekseyevsk,57.8406,108.3492,-3.89,99,100,3.02,RU,1671302337
270,christchurch,-43.5333,172.6333,59.92,92,100,9.22,NZ,1671302338
271,taltal,-25.4,-70.4833,68.92,68,2,7.2,CL,1671302339
272,yagodnoye,62.55,149.6667,-7.38,99,100,4.74,RU,1671302341
273,port macquarie,-31.4333,152.9167,54.9,75,100,10.94,AU,1671302342
274,remanso,-9.6179,-42.0831,79.79,68,98,9.98,BR,1671302343
275,axim,4.8699,-2.2405,79.52,80,10,7.23,GH,1671302345
276,tres arroyos,-38.3739,-60.2798,86.99,14,2,9.73,AR,1671302346
277,bilibino,68.0546,166.4372,1.15,98,100,5.99,RU,1671302131
278,kaitong,44.8135,123.15,-1.16,49,11,7.83,CN,1671302349
279,makakilo city,21.3469,-158.0858,75.61,78,0,3.44,US,1671302351
280,slave lake,55.2834,-114.769,-0.42,85,100,9.22,CA,1671302352
281,cherskiy,68.75,161.3,-11.25,100,100,5.91,RU,1671302354
282,hwange,-18.3693,26.5019,71.49,78,99,1.63,ZW,1671302355
283,chokurdakh,70.6333,147.9167,-37.75,100,37,1.99,RU,1671302357
284,chateauroux,46.8167,1.7,26.6,86,0,10.36,FR,1671302068
285,nanga eboko,4.6833,12.3667,75.6,60,71,3.44,CM,1671302359
286,mastic,40.802,-72.8409,46.92,57,0,18.41,US,1671302361
287,longyearbyen,78.2186,15.6401,4.84,78,40,4.61,SJ,1671302362
288,akashi,34.6333,134.9833,44.64,60,99,17.31,JP,1671302364
289,airai,-8.9266,125.4092,59.09,93,96,0.56,TL,1671302365
290,linhares,-19.3911,-40.0722,73.72,93,100,6.22,BR,1671302366
291,waipawa,-41.4122,175.5153,56.57,96,100,6.38,NZ,1671302368
292,saint-augustin,51.226,-58.6502,32.09,77,100,14.54,CA,1671302369
293,changji,44.0167,87.3167,3.99,85,0,6.71,CN,1671302371
294,rostovka,55.3842,71.8891,3.24,97,98,7.23,RU,1671302372
295,isla vista,34.4133,-119.861,64.31,58,0,0.0,US,1671302374
296,vila velha,-20.3297,-40.2925,78.75,78,75,10.36,BR,1671302143
297,san juan,-31.5375,-68.5364,88.18,20,0,7.14,AR,1671302376
298,havoysund,70.9963,24.6622,23.23,74,100,9.75,NO,1671302378
299,trinidad,-14.8333,-64.9,85.98,66,75,6.91,BO,1671302379
300,ayorou,14.7308,0.9174,80.28,13,0,9.93,NE,1671302380
301,la primavera,5.4906,-70.4092,90.07,41,100,11.72,CO,1671302176
302,galveston,29.3669,-94.9669,54.03,53,100,12.66,US,1671302383
303,hoskote,13.0669,77.7983,68.02,100,20,4.61,IN,1671302384
304,ostrovnoy,68.0531,39.5131,20.32,89,94,22.84,RU,1671302386
305,acapulco,16.8634,-99.8901,84.02,45,100,5.75,MX,1671302133
306,ketchikan,55.3422,-131.6461,28.38,54,0,6.91,US,1671302388
307,iquitos,-3.7481,-73.2472,80.64,94,100,1.14,PE,1671302390
308,lavrentiya,65.5833,-171.0,18.55,79,100,8.97,RU,1671302391
309,locri,38.2414,16.2623,59.32,85,100,9.69,IT,1671302392
310,zheleznodorozhnyy,55.7503,38.0042,25.36,96,100,7.83,RU,1671302394
311,egvekinot,66.3167,-179.1667,10.67,61,44,10.16,RU,1671302395
312,port dickson,2.5228,101.7959,79.02,87,100,7.02,MY,1671302397
313,kahului,20.8947,-156.47,78.84,82,0,4.61,US,1671302398
314,ahuimanu,21.4447,-157.8378,75.78,84,20,3.44,US,1671302399
315,mmabatho,-25.85,25.6333,67.96,77,40,5.75,ZA,1671302401
316,alyangula,-13.8483,136.4192,83.44,74,100,6.38,AU,1671302402
317,port-cartier,50.0334,-66.8654,27.75,88,100,15.82,CA,1671302332
318,sheboygan,43.7333,-87.9334,26.67,80,100,17.27,US,1671302402
319,boyolangu,-8.1181,111.8935,74.82,91,80,2.62,ID,1671302406
320,labuhan,-6.8844,112.2051,77.34,86,96,7.52,ID,1671302408
321,raton,36.9034,-104.4391,32.61,16,0,0.0,US,1671302410
322,ruteng,-8.6136,120.4721,61.27,89,100,0.6,ID,1671302411
323,vostok,46.4856,135.8833,-22.54,99,100,3.33,RU,1671302413
324,poum,-20.2333,164.0167,79.5,76,7,5.82,NC,1671302414
325,san luis,-33.295,-66.3356,82.38,30,24,8.5,AR,1671302415
326,gamba,-2.65,10.0,78.24,84,96,4.85,GA,1671302365
327,zhaotong,27.3167,103.7167,25.57,88,48,0.63,CN,1671302418
328,bubaque,11.2833,-15.8333,81.79,62,9,11.32,GW,1671302420
329,cap-aux-meules,47.3821,-61.8597,35.65,87,75,24.16,CA,1671302271
330,saint-francois,46.4154,3.9054,21.67,93,100,2.3,FR,1671302422
331,kudahuvadhoo,2.6708,72.8944,81.21,73,100,10.94,MV,1671302424
332,faro,37.0194,-7.9322,59.97,82,0,0.0,PT,1671302425
333,khani,41.9563,42.9566,42.37,62,10,7.43,GE,1671302427
334,north bend,43.4065,-124.2243,37.31,81,20,8.05,US,1671302428
335,kununurra,-15.7667,128.7333,75.18,94,40,5.75,AU,1671302430
336,karratha,-20.7377,116.8463,77.74,73,24,16.24,AU,1671302291
337,almaznyy,48.0448,40.045,43.34,87,100,12.59,RU,1671302432
338,wawa,9.9022,4.4192,82.83,25,100,1.61,NG,1671302434
339,high level,58.5169,-117.136,-3.89,77,100,16.11,CA,1671302401
340,sao felix do xingu,-6.6447,-51.995,81.99,83,60,1.68,BR,1671302436
341,korla,41.7597,86.1469,17.44,67,0,5.06,CN,1671302438
342,bakel,14.905,-12.4568,83.55,11,0,8.63,SN,1671302439
343,payo,-3.7508,103.6372,72.23,97,96,1.68,ID,1671302440
344,hobyo,5.3505,48.5268,78.58,74,60,19.08,SO,1671302442
345,konstantinovka,49.6167,127.9833,-28.39,100,61,3.76,RU,1671302443
346,mpongwe,-13.5091,28.155,65.21,94,99,2.95,ZM,1671302445
347,hambantota,6.1241,81.1185,77.34,94,75,4.61,LK,1671302446
348,nioro,13.35,-15.75,84.11,13,5,6.76,GM,1671302440
349,raudeberg,61.9875,5.1352,35.87,31,100,22.21,NO,1671302448
350,beringovskiy,63.05,179.3167,28.58,96,100,16.69,RU,1671302450
351,trincomalee,8.5711,81.2335,79.43,76,100,16.13,LK,1671302451
352,kruisfontein,-34.0033,24.7314,67.89,95,100,7.99,ZA,1671302453
353,northam,51.0333,-4.2167,38.39,83,6,12.01,GB,1671302454
354,roald,62.5833,6.1333,35.74,64,20,16.11,NO,1671302455
355,santiago,-33.4569,-70.6483,84.54,32,0,20.71,CL,1671302431
356,lockhart,28.6194,-81.4426,72.14,51,0,6.91,US,1671302458
357,kismayo,-0.3582,42.5454,79.54,77,12,13.22,SO,1671302459
358,margate,51.3813,1.3862,35.69,85,100,5.01,GB,1671302460
359,rio cuarto,-33.1307,-64.3499,86.32,19,43,14.83,AR,1671302462
360,porto santo,33.072,-16.3415,66.58,77,40,14.97,PT,1671302463
361,atakpame,7.5333,1.1333,84.74,32,100,2.42,TG,1671302465
362,mantua,45.1667,10.7833,44.1,86,99,1.01,IT,1671302466
363,zhuanghe,39.7008,122.9911,8.26,63,1,8.3,CN,1671302234
364,quelimane,-17.8786,36.8883,81.95,71,98,7.76,MZ,1671302468
365,salalah,17.0151,54.0924,80.69,26,0,14.97,OM,1671302470
366,daru,-9.0763,143.2092,78.87,83,15,4.12,PG,1671302471
367,nanakuli,21.3906,-158.1547,76.03,75,0,3.44,US,1671302473
368,rawson,-43.3002,-65.1023,74.25,36,100,10.85,AR,1671302474
369,matara,5.9485,80.5353,73.98,87,100,6.58,LK,1671302476
370,abhaynagar,23.0129,89.4049,61.81,46,12,4.76,BD,1671302477
371,amazar,53.858,120.875,-26.19,95,14,3.69,RU,1671302479
372,veraval,20.9,70.3667,76.75,53,15,6.44,IN,1671302410
373,hohhot,40.8106,111.6522,-0.11,71,0,4.47,CN,1671302223
374,toronto,43.7001,-79.4163,35.15,69,100,18.41,CA,1671302403
375,banda aceh,5.5577,95.3222,77.2,83,97,10.0,ID,1671302484
376,minden,52.2833,8.9167,26.82,80,4,8.05,DE,1671302486
377,ojinaga,29.5667,-104.4167,61.57,37,0,0.0,MX,1671302487
378,den helder,52.9599,4.7593,30.18,86,100,12.66,NL,1671302488
379,konigs wusterhausen,52.3014,13.633,26.11,96,100,5.75,DE,1671302490
380,kushima,31.4583,131.2333,41.59,94,71,14.83,JP,1671302491
381,jawhar,2.7809,45.5005,74.75,79,25,13.53,SO,1671302493
382,kukuna,9.4,-12.6667,82.2,39,0,3.53,SL,1671302494
383,kalangala,-0.3089,32.225,69.15,66,95,5.68,UG,1671302495
384,puntarenas,9.9763,-84.8384,85.44,63,67,4.12,CR,1671302497
385,abay,49.6311,72.8539,-5.42,90,5,4.23,KZ,1671302498
386,sierpc,52.8568,19.6691,19.56,94,50,5.12,PL,1671302499
387,shima,24.4478,117.8111,48.22,70,5,5.77,CN,1671302501
388,tayu,-6.5397,111.0518,76.28,89,100,6.87,ID,1671302502
389,port lincoln,-34.7333,135.8667,61.39,87,100,15.03,AU,1671302503
390,meulaboh,4.1363,96.1285,74.95,92,100,5.03,ID,1671302505
391,vanimo,-2.6741,141.3028,76.73,89,100,3.85,PG,1671302506
392,kimparana,12.8347,-4.9244,81.19,11,0,7.54,ML,1671302507
393,magistralnyy,56.1725,107.4458,-2.18,98,100,2.01,RU,1671302509
394,port augusta,-32.5,137.7667,73.99,25,100,17.49,AU,1671302510
395,khandyga,62.6667,135.6,-53.52,100,68,0.76,RU,1671302511
396,camana,-16.6228,-72.7111,72.19,75,100,6.76,PE,1671302513
397,gizo,-8.103,156.8419,81.21,77,51,5.32,SB,1671302514
398,russell,32.3502,-85.1999,50.2,53,40,10.36,US,1671302516
399,bowen,-20.0167,148.2333,79.09,69,86,17.52,AU,1671302517
400,cervignano del friuli,45.8211,13.3381,46.36,66,75,5.75,IT,1671302519
401,sturgeon bay,44.8342,-87.377,28.38,74,100,9.22,US,1671302520
402,havelock,34.8791,-76.9013,55.38,54,75,8.05,US,1671302247
403,arman,59.7,150.1667,5.5,81,100,16.78,RU,1671302523
404,pitea,65.3172,21.4794,12.29,93,41,4.43,SE,1671302525
405,kurikka,62.6167,22.4167,26.74,96,100,8.79,FI,1671302526
406,el carrizo,24.0261,-106.8814,75.63,44,100,2.42,MX,1671302528
407,cabo san lucas,22.8909,-109.9124,75.51,60,100,1.01,MX,1671302529
408,coihaique,-45.5752,-72.0662,63.21,39,40,10.36,CL,1671302530
409,dunedin,-45.8742,170.5036,52.81,99,100,1.99,NZ,1671302532
410,simao,22.7886,100.9748,44.64,84,100,3.58,CN,1671302533
411,ternate,0.8,127.4,79.63,80,100,5.12,ID,1671302535
412,qandala,11.472,49.8728,75.74,56,1,4.47,SO,1671302536
413,muros,42.7762,-9.0603,55.09,86,100,14.25,ES,1671302538
414,hue,16.4667,107.6,62.71,94,75,13.8,VN,1671302539
415,toyooka,35.5333,134.8333,35.29,89,100,12.35,JP,1671302541
416,nayoro,44.3506,142.4578,22.23,95,100,4.25,JP,1671302542
417,deniliquin,-35.5333,144.9667,57.07,58,0,7.83,AU,1671302544
418,san quintin,30.4833,-115.95,62.47,43,15,3.8,MX,1671302545
419,synya,65.3718,58.0387,11.01,96,100,7.2,RU,1671302547
420,banjar,-8.19,114.9675,75.94,90,94,3.27,ID,1671302548
421,la plata,-34.9215,-57.9545,77.83,31,61,11.9,AR,1671302280
422,lorengau,-2.0226,147.2712,79.41,78,90,1.86,PG,1671302550
423,kalmunai,7.4167,81.8167,75.61,88,100,10.07,LK,1671302552
424,jalu,29.0331,21.5482,65.19,47,0,8.16,LY,1671302553
425,namatanai,-3.6667,152.4333,78.06,86,100,3.87,PG,1671302555
426,mocuba,-16.8392,36.9856,80.29,66,100,4.14,MZ,1671302556
427,astoria,46.1879,-123.8313,40.86,100,93,2.82,US,1671302557
428,barra,-11.0894,-43.1417,73.36,84,100,4.7,BR,1671302559
429,san policarpo,12.1791,125.5072,80.11,84,100,13.76,PH,1671302560
430,araouane,18.9048,-3.5265,76.21,12,0,8.81,ML,1671302561
431,vrable,48.2437,18.3085,31.69,72,1,9.33,SK,1671302563
432,provideniya,64.3833,-173.3,22.46,83,100,16.91,RU,1671302564
433,impfondo,1.6381,18.0667,74.19,80,97,0.43,CG,1671302565
434,port hardy,50.6996,-127.4199,39.38,93,75,3.44,CA,1671302412
435,saint-joseph,-21.3667,55.6167,77.38,80,96,11.74,RE,1671302568
436,granja,-3.1203,-40.8261,92.71,38,98,13.0,BR,1671302569
437,uitenhage,-33.7576,25.3971,69.42,92,100,5.26,ZA,1671302571
438,oktyabrskoye,43.0645,44.7417,26.74,100,0,4.47,RU,1671302572
439,colima,19.1667,-104.0,76.6,38,100,4.76,MX,1671302545
440,laguna,38.421,-121.4238,55.09,81,0,4.61,US,1671302574
441,ayan,56.45,138.1667,-12.87,77,97,17.38,RU,1671302576
442,mahajanga,-15.7167,46.3167,78.82,83,20,3.44,MG,1671302577
443,kolyvan,55.3053,82.7391,-2.58,98,7,4.21,RU,1671302579
444,baykit,61.67,96.37,-23.49,100,90,0.87,RU,1671302580
445,lydenburg,-25.0978,30.4597,63.52,92,100,2.28,ZA,1671302581
446,trairi,-3.2778,-39.2689,84.04,61,8,12.68,BR,1671302549
447,petersburg,37.2279,-77.4019,51.48,42,0,8.05,US,1671302584
448,panlaitan,12.1191,119.8486,81.27,78,100,7.56,PH,1671302585
449,sao jose da coroa grande,-8.8978,-35.1478,81.64,66,78,12.59,BR,1671302587
450,shirokiy,49.758,129.523,-27.27,97,81,6.15,RU,1671302588
451,abu dhabi,24.4667,54.3667,75.31,59,0,4.61,AE,1671302574
452,zhangjiakou,40.81,114.8794,9.46,65,48,6.96,CN,1671302349
453,morondava,-20.2833,44.2833,82.04,74,94,2.77,MG,1671302592
454,komsomolskiy,40.4272,71.7189,30.92,86,29,4.61,UZ,1671302593
455,severo-yeniseyskiy,60.3725,93.0408,-15.3,99,100,3.51,RU,1671302594
456,colares,38.7992,-9.4469,59.32,87,20,8.01,PT,1671302596
457,sistranda,63.7256,8.834,22.96,67,100,13.18,NO,1671302597
458,tornio,65.8481,24.1466,28.42,87,100,8.34,FI,1671302599
459,zhirnov,48.1709,41.1261,41.74,85,83,10.63,RU,1671302600
460,bachatskiy,54.2927,86.1285,4.3,92,5,3.85,RU,1671302601
461,kemise,10.7167,39.8667,65.95,67,90,1.07,ET,1671302603
462,lac du bonnet,50.2536,-96.0612,9.39,92,100,11.63,CA,1671302604
463,smithers,54.7804,-127.1743,14.32,73,100,13.8,CA,1671302606
464,mweka,-4.85,21.5667,68.97,95,59,1.74,CD,1671302607
465,daura,11.5538,11.4085,75.51,17,100,10.71,NG,1671302609
466,usagara,-2.6833,33.0,68.22,71,100,6.04,TZ,1671302610
467,la lira,20.4667,-100.15,67.71,32,40,5.75,MX,1671302611
468,caririacu,-7.0422,-39.2836,87.89,40,20,5.75,BR,1671302613
469,salta,-24.7859,-65.4117,77.59,44,75,9.22,AR,1671302614
470,batagay,67.6333,134.6333,-52.02,96,25,1.05,RU,1671302615
471,los llanos de aridane,28.6585,-17.9182,65.95,87,75,2.3,ES,1671302617
472,bulaevo,54.9056,70.4439,7.16,96,100,7.52,KZ,1671302618
473,avallon,47.4833,3.9,25.18,77,1,4.05,FR,1671302619
474,moyale,3.5167,39.0584,71.91,39,53,10.33,KE,1671302621
475,dom pedrito,-30.9828,-54.6731,85.37,18,100,8.93,BR,1671302622
476,shingu,33.7333,135.9833,38.25,82,15,10.31,JP,1671302623
477,sutton,51.35,-0.2,35.33,87,96,1.01,GB,1671302407
478,bonthe,7.5264,-12.505,81.16,73,91,9.01,SL,1671302626
479,kilindoni,-7.9139,39.6668,81.5,76,46,13.65,TZ,1671302627
480,vila do maio,15.1333,-23.2167,77.79,76,100,14.34,CV,1671302628
481,tabas,33.5959,56.9244,55.47,51,99,7.23,IR,1671302630
482,doha,25.2867,51.5333,71.58,66,0,10.36,QA,1671302631
483,tangzhai,34.4328,116.5911,21.25,27,0,6.73,CN,1671302632
484,enterprise,36.0252,-115.2419,44.73,34,20,4.61,US,1671302515
485,florina,40.782,21.4098,52.65,85,57,3.36,GR,1671302635
486,havre-saint-pierre,50.2334,-63.5986,26.96,74,100,18.41,CA,1671302636
487,sola,-13.8833,167.55,70.47,100,20,0.0,VU,1671302638
488,kenai,60.5544,-151.2583,3.15,76,0,4.61,US,1671302639
489,lebanon,36.2081,-86.2911,46.27,48,20,16.11,US,1671302590
490,fairbanks,64.8378,-147.7164,-25.64,71,0,0.0,US,1671302512
491,pontianak,-0.0333,109.3333,75.18,100,100,1.14,ID,1671302643
492,vilhena,-12.7406,-60.1458,73.62,94,75,14.97,BR,1671302644
493,iqaluit,63.7506,-68.5145,26.33,68,75,11.5,CA,1671302645
494,anadyr,64.75,177.4833,25.3,85,75,31.32,RU,1671302647
495,koulikoro,14.0,-7.75,77.49,11,0,9.31,ML,1671302648
496,asau,46.4333,26.4,34.72,87,71,1.79,RO,1671302649
497,lodingen,68.414,15.9951,26.74,93,84,4.83,NO,1671302651
498,prijepolje,43.3719,19.6406,43.57,96,96,4.74,RS,1671302653
499,beisfjord,68.3751,17.5988,26.65,94,98,5.97,NO,1671302654
500,albi,43.9298,2.148,40.46,80,4,3.0,FR,1671302651
501,itarema,-2.9248,-39.9167,84.45,60,60,14.83,BR,1671302657
502,mecca,21.4267,39.8261,76.93,60,3,2.91,SA,1671302563
503,tobane,-21.95,27.9,76.21,66,75,5.17,BW,1671302659
504,saint stephen,50.3333,-4.9,37.2,80,26,9.22,GB,1671302661
505,abha,18.2164,42.5053,55.22,26,0,8.05,SA,1671302532
506,tual,-5.6667,132.75,83.43,77,99,10.0,ID,1671302663
507,san jose de rio tinto,14.9333,-85.7,81.77,60,75,5.06,HN,1671302665
508,jiancheng,30.391,104.5491,40.42,52,5,3.18,CN,1671302666
509,caravelas,-17.7125,-39.2481,75.74,93,100,7.18,BR,1671302667
510,punta gorda,26.9298,-82.0454,77.99,74,0,10.36,US,1671302574
511,middelburg,-25.7751,29.4648,65.84,84,100,5.1,ZA,1671302670
512,nola,40.922,14.5329,58.86,92,0,1.23,IT,1671302671
513,nador,35.174,-2.9287,62.85,67,0,8.05,MA,1671302524
514,mangalia,43.8,28.5833,54.88,77,100,9.51,RO,1671302674
515,nelson bay,-32.7167,152.15,62.11,81,100,1.01,AU,1671302675
516,ingham,42.6,-84.3833,29.43,81,100,8.05,US,1671302676
517,basoko,1.2391,23.616,76.95,73,50,1.48,CD,1671302678
518,cochrane,51.1834,-114.4687,5.27,62,100,12.66,CA,1671302473
519,kharp,66.8014,65.8081,5.4,90,81,9.17,RU,1671302680
520,mahina,-17.5065,-149.489,83.97,70,75,4.61,PF,1671302681
521,ilulissat,69.2167,-51.1,15.82,67,40,25.32,GL,1671302654
522,wilmington,34.2257,-77.9447,55.31,53,0,11.5,US,1671302684
523,murmashi,68.8154,32.8115,3.61,92,20,0.0,RU,1671302686
524,beian,63.6559,9.5683,28.0,80,20,23.02,NO,1671302687
525,bathsheba,13.2167,-59.5167,84.81,80,40,21.85,BB,1671302688
526,ca mau,9.1769,105.15,73.11,94,99,8.63,VN,1671302413
527,linfen,36.0889,111.5189,26.76,22,0,5.1,CN,1671302691
528,praia,14.9215,-23.5087,77.54,65,20,20.71,CV,1671302692
529,saint anthony,45.0205,-93.218,21.13,83,100,13.8,US,1671302693
530,huatulco,15.8436,-96.3267,86.86,56,0,0.0,MX,1671302555
531,shangrao,28.4532,117.9686,32.61,69,0,0.69,CN,1671302696
532,naica,27.85,-105.4833,58.42,23,97,3.8,MX,1671302697
533,pinsk,52.1229,26.0951,23.16,96,100,11.72,BY,1671302698
534,henties bay,-22.116,14.2845,64.35,93,8,6.78,NA,1671302700
535,lano,10.1725,11.4715,78.44,22,100,4.72,NG,1671302701
536,belyy yar,53.6039,91.3903,-13.11,83,7,0.0,RU,1671302702
537,okhotsk,59.3833,143.3,6.71,90,100,22.08,RU,1671302704
538,flinders,-34.5833,150.8552,59.18,82,100,7.0,AU,1671302705
539,apac,1.9756,32.5386,67.73,69,25,2.95,UG,1671302707
540,marsh harbour,26.5412,-77.0636,74.91,74,24,9.84,BS,1671302708
541,asmara,15.3333,38.9333,52.03,84,43,4.83,ER,1671302709
542,monrovia,6.3005,-10.7969,82.17,75,100,8.79,LR,1671302711
543,beira,-19.8436,34.8389,82.49,78,40,8.05,MZ,1671302712
544,cape canaveral,28.4058,-80.6048,75.09,60,0,10.36,US,1671302714
545,jalingo,8.8833,11.3667,80.19,18,100,4.23,NG,1671302715
546,moindou,-21.6924,165.677,77.76,77,30,2.19,NC,1671302716
547,la sarre,48.8002,-79.1996,30.74,95,100,4.36,CA,1671302452
548,savalou,7.9281,1.9756,88.32,34,100,4.09,BJ,1671302719
549,bilma,18.6853,12.9164,72.93,21,98,4.65,NE,1671302720
550,carutapera,-1.195,-46.02,85.19,60,84,9.78,BR,1671302596
551,alejandria,5.4753,-75.2296,70.45,72,100,3.87,CO,1671302723
552,emba,48.8264,58.1442,16.05,77,86,3.13,KZ,1671302724
553,la llanada,1.49,-77.5835,61.57,80,100,6.04,CO,1671302726
554,pangai,-19.8,-174.35,78.91,73,20,6.91,TO,1671302727
555,saraipali,21.3333,83.0,60.82,33,5,2.77,IN,1671302728
556,ituango,7.1712,-75.764,73.78,69,96,4.29,CO,1671302730
557,serebryanyy bor,56.8,124.8,-42.47,100,100,2.44,RU,1671302731
558,murwillumbah,-28.3167,153.4,64.42,72,32,14.97,AU,1671302733
559,santiago del estero,-27.7951,-64.2615,64.27,75,100,6.62,AR,1671302569
560,neiafu,-18.65,-173.9833,72.28,94,20,0.0,TO,1671302735
561,goderich,43.7501,-81.7165,33.91,74,100,13.8,CA,1671302639
562,gushikawa,26.3544,127.8686,58.23,58,100,19.57,JP,1671302737
563,shimoda,34.6667,138.95,42.1,71,36,27.38,JP,1671302739
564,turkistan,43.0,68.0,33.44,61,100,3.78,KZ,1671302740
565,chulman,56.8479,124.9104,-43.69,100,100,2.19,RU,1671302741
566,kerouane,9.2667,-9.0167,76.68,21,0,3.47,GN,1671302743
567,rafai,4.95,23.9167,75.52,36,47,1.66,CF,1671302744
568,letlhakane,-21.4167,25.5833,77.94,58,28,6.31,BW,1671302745
569,kuminskiy,58.6667,66.5667,9.9,94,6,7.29,RU,1671302747
570,ponta delgada,37.7333,-25.6667,68.5,88,40,19.57,PT,1671302749
571,skibbereen,51.55,-9.2667,49.1,77,100,13.27,IE,1671302750
572,kolda,12.8833,-14.95,91.71,35,0,0.0,SN,1671302752
573,trelew,-43.249,-65.3051,81.27,22,100,13.67,AR,1671302626
574,leshukonskoye,64.8989,45.7622,7.68,97,71,6.69,RU,1671302754
575,baran,25.1,76.5167,58.93,33,0,4.88,IN,1671302756
576,saint-louis,16.3333,-15.0,91.04,10,0,8.48,SN,1671302757
577,palasa,18.7667,84.4167,65.97,77,7,4.56,IN,1671302758
578,penal,10.1667,-61.4667,87.73,81,53,4.0,TT,1671302760
579,hami,42.8,93.45,18.28,38,0,3.89,CN,1671302761
580,tazovskiy,67.4667,78.7,4.77,95,100,10.6,RU,1671302763
581,vaitape,-16.5167,-151.75,79.97,77,100,11.86,PF,1671302764
